{
    "airports": {
        "airport-1": {
            "_id": "airport-1",
            "icao": "00AK",
            "iata": "",
            "name": "Lowell Field",
            "city": "Anchor Point",
            "state": "Alaska",
            "country": "US",
            "elevation": 450,
            "lat": 59.94919968,
            "lon": -151.695999146,
            "tz": "America/Anchorage"
        },
        "airport-2": {
            "_id": "airport-2",
            "icao": "00AL",
            "iata": "",
            "name": "Epps Airpark",
            "city": "Harvest",
            "state": "Alabama",
            "country": "US",
            "elevation": 820,
            "lat": 34.8647994995,
            "lon": -86.7703018188,
            "tz": "America/Chicago"
        },
        "airport-3": {
            "_id": "airport-3",
            "icao": "00AZ",
            "iata": "",
            "name": "Cordes Airport",
            "city": "Cordes",
            "state": "Arizona",
            "country": "US",
            "elevation": 3810,
            "lat": 34.3055992126,
            "lon": -112.1650009155,
            "tz": "America/Phoenix"
        },
        "airport-4": {
            "_id": "airport-4",
            "icao": "00CA",
            "iata": "",
            "name": "Goldstone /Gts/ Airport",
            "city": "Barstow",
            "state": "California",
            "country": "US",
            "elevation": 3038,
            "lat": 35.3504981995,
            "lon": -116.888000488,
            "tz": "America/Los_Angeles"
        },
        "airport-5": {
            "_id": "airport-5",
            "icao": "00CL",
            "iata": "",
            "name": "Williams Ag Airport",
            "city": "Biggs",
            "state": "California",
            "country": "US",
            "elevation": 87,
            "lat": 39.42718888,
            "lon": -121.76342777,
            "tz": "America/Los_Angeles"
        },
        "airport-6": {
            "_id": "airport-6",
            "icao": "00CO",
            "iata": "",
            "name": "Cass Field",
            "city": "Briggsdale",
            "state": "Colorado",
            "country": "US",
            "elevation": 4830,
            "lat": 40.6222000122,
            "lon": -104.34400177,
            "tz": "America/Denver"
        },
        "airport-7": {
            "_id": "airport-7",
            "icao": "00FA",
            "iata": "",
            "name": "Grass Patch Airport",
            "city": "Bushnell",
            "state": "Florida",
            "country": "US",
            "elevation": 53,
            "lat": 28.6455001831,
            "lon": -82.21900177,
            "tz": "America/New_York"
        },
        "airport-8": {
            "_id": "airport-8",
            "icao": "00FL",
            "iata": "",
            "name": "River Oak Airport",
            "city": "Okeechobee",
            "state": "Florida",
            "country": "US",
            "elevation": 35,
            "lat": 27.2308998108,
            "lon": -80.9692001343,
            "tz": "America/New_York"
        },
        "airport-9": {
            "_id": "airport-9",
            "icao": "00GA",
            "iata": "",
            "name": "Lt World Airport",
            "city": "Lithonia",
            "state": "Georgia",
            "country": "US",
            "elevation": 700,
            "lat": 33.7675018311,
            "lon": -84.0682983398,
            "tz": "America/New_York"
        },
        "airport-10": {
            "_id": "airport-10",
            "icao": "00ID",
            "iata": "",
            "name": "Delta Shores Airport",
            "city": "Clark Fork",
            "state": "Idaho",
            "country": "US",
            "elevation": 2064,
            "lat": 48.1453018188,
            "lon": -116.2139968872,
            "tz": "America/Los_Angeles"
        },
        "airport-11": {
            "_id": "airport-11",
            "icao": "00IL",
            "iata": "",
            "name": "Hammer Airport",
            "city": "Polo",
            "state": "Illinois",
            "country": "US",
            "elevation": 840,
            "lat": 41.9784011841,
            "lon": -89.5604019165,
            "tz": "America/Chicago"
        },
        "airport-12": {
            "_id": "airport-12",
            "icao": "00IS",
            "iata": "",
            "name": "Hayenga's Cant Find Farms Airport",
            "city": "Kings",
            "state": "Illinois",
            "country": "US",
            "elevation": 820,
            "lat": 40.0256004333,
            "lon": -89.1229019165,
            "tz": "America/Chicago"
        },
        "airport-13": {
            "_id": "airport-13",
            "icao": "00KS",
            "iata": "",
            "name": "Hayden Farm Airport",
            "city": "Gardner",
            "state": "Kansas",
            "country": "US",
            "elevation": 1100,
            "lat": 38.7277984619,
            "lon": -94.9304962158,
            "tz": "America/Chicago"
        },
        "airport-14": {
            "_id": "_airport-14",
            "icao": "00KY",
            "iata": "",
            "name": "Robbins Roost Airport",
            "city": "Stanford",
            "state": "Kentucky",
            "country": "US",
            "elevation": 1265,
            "lat": 37.4094009399,
            "lon": -84.6196975708,
            "tz": "America/New_York"
        },
        "airport-15": {
            "_id": "airport-15",
            "icao": "00LS",
            "iata": "",
            "name": "Lejeune Airport",
            "city": "Esterwood",
            "state": "Louisiana",
            "country": "US",
            "elevation": 12,
            "lat": 30.1362991333,
            "lon": -92.429397583,
            "tz": "America/Chicago"
        },
        "airport-16": {
            "_id": "airport-16",
            "icao": "00MD",
            "iata": "",
            "name": "Slater Field",
            "city": "Federalsburg",
            "state": "Maryland",
            "country": "US",
            "elevation": 45,
            "lat": 38.7570991516,
            "lon": -75.7537994385,
            "tz": "America/New_York"
        },
        "airport-17": {
            "_id": "airport-17",
            "icao": "00MN",
            "iata": "",
            "name": "Battle Lake Municipal Airport",
            "city": "Battle Lake",
            "state": "Minnesota",
            "country": "US",
            "elevation": 1365,
            "lat": 46.2999992371,
            "lon": -95.700302124,
            "tz": "America/Chicago"
        },
        "airport-18": {
            "_id": "airport-18",
            "icao": "00MO",
            "iata": "",
            "name": "Cooper Flying Service Airport",
            "city": "Alba",
            "state": "Missouri",
            "country": "US",
            "elevation": 970,
            "lat": 37.2028007507,
            "lon": -94.412399292,
            "tz": "America/Chicago"
        },
        "airport-19": {
            "_id": "airport-19",
            "icao": "00MT",
            "iata": "",
            "name": "Sands Ranch Airport",
            "city": "Havre",
            "state": "Montana",
            "country": "US",
            "elevation": 2600,
            "lat": 48.5374984741,
            "lon": -109.7050018311,
            "tz": "America/Denver"
        },
        "airport-20": {
            "_id": "airport-20",
            "icao": "00NC",
            "iata": "",
            "name": "North Raleigh Airport",
            "city": "Louisburg",
            "state": "North Carolina",
            "country": "US",
            "elevation": 348,
            "lat": 36.0852012634,
            "lon": -78.3713989258,
            "tz": "America/New_York"
        },
        "airport-21": {
            "_id": "airport-21",
            "icao": "00NY",
            "iata": "",
            "name": "Weiss Airfield",
            "city": "West Bloomfield",
            "state": "New York",
            "country": "US",
            "elevation": 1000,
            "lat": 42.900100708,
            "lon": -77.4997024536,
            "tz": "America/New_York"
        },
        "airport-22": {
            "_id": "airport-22",
            "icao": "00OH",
            "iata": "",
            "name": "Exit 3 Airport",
            "city": "Wauseon",
            "state": "Ohio",
            "country": "US",
            "elevation": 785,
            "lat": 41.5909004211,
            "lon": -84.1421966553,
            "tz": "America/New_York"
        },
        "airport-23": {
            "_id": "airport-23",
            "icao": "00PN",
            "iata": "",
            "name": "Ferrell Field",
            "city": "Mercer",
            "state": "Pennsylvania",
            "country": "US",
            "elevation": 1301,
            "lat": 41.2995,
            "lon": -80.211111,
            "tz": "America/New_York"
        },
        "airport-24": {
            "_id": "airport-24",
            "icao": "00PS",
            "iata": "",
            "name": "Thomas Field",
            "city": "Loysville",
            "state": "Pennsylvania",
            "country": "US",
            "elevation": 815,
            "lat": 40.3777999878,
            "lon": -77.3653030396,
            "tz": "America/New_York"
        },
        "airport-25": {
            "_id": "airport-25",
            "icao": "00SC",
            "iata": "",
            "name": "Flying O Airport",
            "city": "Sumter",
            "state": "South Carolina",
            "country": "US",
            "elevation": 150,
            "lat": 34.0093994141,
            "lon": -80.2671966553,
            "tz": "America/New_York"
        },
        "airport-26": {
            "_id": "airport-26",
            "icao": "00TN",
            "iata": "",
            "name": "Ragsdale Road Airport",
            "city": "Manchester",
            "state": "Tennessee",
            "country": "US",
            "elevation": 1100,
            "lat": 35.5158996582,
            "lon": -85.9535980225,
            "tz": "America/Chicago"
        },
        "airport-27": {
            "_id": "airport-27",
            "icao": "00TS",
            "iata": "",
            "name": "Alpine Range Airport",
            "city": "Everman",
            "state": "Texas",
            "country": "US",
            "elevation": 670,
            "lat": 32.6076011658,
            "lon": -97.2419967651,
            "tz": "America/Chicago"
        },
        "airport-28": {
            "_id": "airport-28",
            "icao": "00TX",
            "iata": "",
            "name": "Delva Field",
            "city": "Van",
            "state": "Texas",
            "country": "US",
            "elevation": 545,
            "lat": 32.544452,
            "lon": -95.67313,
            "tz": "America/Chicago"
        },
        "airport-29": {
            "_id": "airport-29",
            "icao": "00VA",
            "iata": "",
            "name": "Vaughan Airport",
            "city": "Alton",
            "state": "Virginia",
            "country": "US",
            "elevation": 551,
            "lat": 36.57600021,
            "lon": -78.9991684,
            "tz": "America/New_York"
        },
        "airport-30": {
            "_id": "airport-30",
            "icao": "00VI",
            "iata": "",
            "name": "Groundhog Mountain Airport",
            "city": "Hillsville",
            "state": "Virginia",
            "country": "US",
            "elevation": 2680,
            "lat": 36.6632995605,
            "lon": -80.49949646,
            "tz": "America/New_York"
        },
        "airport-31": {
            "_id": "airport-31",
            "icao": "00WA",
            "iata": "",
            "name": "Howell Airport",
            "city": "Longbranch",
            "state": "Washington",
            "country": "US",
            "elevation": 150,
            "lat": 47.1783981323,
            "lon": -122.7720031738,
            "tz": "America/Los_Angeles"
        },
        "airport-32": {
            "_id": "airport-32",
            "icao": "00WI",
            "iata": "",
            "name": "Northern Lite Airport",
            "city": "Waupaca",
            "state": "Wisconsin",
            "country": "US",
            "elevation": 860,
            "lat": 44.3042984009,
            "lon": -89.0501022339,
            "tz": "America/Chicago"
        },
        "airport-33": {
            "_id": "airport-33",
            "icao": "00WN",
            "iata": "",
            "name": "Hawks Run Airport",
            "city": "Asotin",
            "state": "Washington",
            "country": "US",
            "elevation": 2900,
            "lat": 46.25,
            "lon": -117.2490005493,
            "tz": "America/Los_Angeles"
        },
        "airport-34": {
            "_id": "airport-34",
            "icao": "00WV",
            "iata": "",
            "name": "Lazy J. Aerodrome",
            "city": "Beverly",
            "state": "West Virginia",
            "country": "US",
            "elevation": 2060,
            "lat": 38.8288993835,
            "lon": -79.8660964966,
            "tz": "America/New_York"
        },
        "airport-35": {
            "_id": "airport-35",
            "icao": "00XS",
            "iata": "",
            "name": "L P Askew Farms Airport",
            "city": "O'Donnell",
            "state": "Texas",
            "country": "US",
            "elevation": 3110,
            "lat": 33.0334014893,
            "lon": -101.9339981079,
            "tz": "America/Chicago"
        },
        "airport-36": {
            "_id": "airport-36",
            "icao": "01AL",
            "iata": "",
            "name": "Ware Island Airport",
            "city": "Clanton",
            "state": "Alabama",
            "country": "US",
            "elevation": 344,
            "lat": 32.9459991455,
            "lon": -86.5139007568,
            "tz": "America/Chicago"
        },
        "airport-37": {
            "_id": "airport-37",
            "icao": "01CL",
            "iata": "",
            "name": "Swansboro Country Airport",
            "city": "Placerville",
            "state": "California",
            "country": "US",
            "elevation": 2594,
            "lat": 38.7999000549,
            "lon": -120.7340011597,
            "tz": "America/Los_Angeles"
        },
        "airport-38": {
            "_id": "airport-38",
            "icao": "01FA",
            "iata": "",
            "name": "Rybolt Ranch Airport",
            "city": "Orlando",
            "state": "Florida",
            "country": "US",
            "elevation": 55,
            "lat": 28.5893993378,
            "lon": -81.144203186,
            "tz": "America/New_York"
        },
        "airport-39": {
            "_id": "airport-39",
            "icao": "01FL",
            "iata": "",
            "name": "Cedar Knoll Flying Ranch Airport",
            "city": "Geneva",
            "state": "Florida",
            "country": "US",
            "elevation": 19,
            "lat": 28.7819004059,
            "lon": -81.1592025757,
            "tz": "America/New_York"
        },
        "airport-40": {
            "_id": "airport-40",
            "icao": "01GE",
            "iata": "",
            "name": "The Farm Airport",
            "city": "Wrightsville",
            "state": "Georgia",
            "country": "US",
            "elevation": 375,
            "lat": 32.6744003296,
            "lon": -82.7711029053,
            "tz": "America/New_York"
        },
        "airport-41": {
            "_id": "airport-41",
            "icao": "01IA",
            "iata": "",
            "name": "Stender Airport",
            "city": "Maysville",
            "state": "Iowa",
            "country": "US",
            "elevation": 725,
            "lat": 41.6610984802,
            "lon": -90.7413024902,
            "tz": "America/Chicago"
        },
        "airport-42": {
            "_id": "airport-42",
            "icao": "01ID",
            "iata": "",
            "name": "Lava Hot Springs Airport",
            "city": "Lava Hot Springs",
            "state": "Idaho",
            "country": "US",
            "elevation": 5268,
            "lat": 42.6082000732,
            "lon": -112.0319976807,
            "tz": "America/Boise"
        },
        "airport-43": {
            "_id": "airport-43",
            "icao": "01II",
            "iata": "",
            "name": "Myers Field",
            "city": "Lizton",
            "state": "Indiana",
            "country": "US",
            "elevation": 950,
            "lat": 39.8849983215,
            "lon": -86.5066986084,
            "tz": "America/Indiana/Indianapolis"
        },
        "airport-44": {
            "_id": "airport-44",
            "icao": "01IS",
            "iata": "",
            "name": "William E. Koenig Airport",
            "city": "Dow",
            "state": "Illinois",
            "country": "US",
            "elevation": 670,
            "lat": 39.0162010193,
            "lon": -90.3181991577,
            "tz": "America/Chicago"
        },
        "airport-45": {
            "_id": "airport-45",
            "icao": "01KS",
            "iata": "",
            "name": "Flying N Ranch Airport",
            "city": "Lost Springs",
            "state": "Kansas",
            "country": "US",
            "elevation": 1485,
            "lat": 38.540599823,
            "lon": -97.0033035278,
            "tz": "America/Chicago"
        },
        "airport-46": {
            "_id": "airport-46",
            "icao": "01LA",
            "iata": "",
            "name": "Barham Airport",
            "city": "Oak Ridge",
            "state": "Louisiana",
            "country": "US",
            "elevation": 90,
            "lat": 32.638999939,
            "lon": -91.7736968994,
            "tz": "America/Chicago"
        },
        "airport-47": {
            "_id": "airport-47",
            "icao": "01LL",
            "iata": "",
            "name": "Schumaier Restricted Landing Area",
            "city": "Pinckneyville",
            "state": "Illinois",
            "country": "US",
            "elevation": 555,
            "lat": 38.1258010864,
            "lon": -89.4638977051,
            "tz": "America/Chicago"
        },
        "airport-48": {
            "_id": "airport-48",
            "icao": "01LS",
            "iata": "",
            "name": "Country Breeze Airport",
            "city": "Slaughter",
            "state": "Louisiana",
            "country": "US",
            "elevation": 125,
            "lat": 30.7059993744,
            "lon": -91.0774002075,
            "tz": "America/Chicago"
        },
        "airport-49": {
            "_id": "airport-49",
            "icao": "01MT",
            "iata": "",
            "name": "Crystal Lakes Resort Airport",
            "city": "Fortine",
            "state": "Montana",
            "country": "US",
            "elevation": 3141,
            "lat": 48.789100647,
            "lon": -114.8799972534,
            "tz": "America/Denver"
        },
        "airport-50": {
            "_id": "airport-50",
            "icao": "01NC",
            "iata": "",
            "name": "Topsail Airpark",
            "city": "Holly Ridge",
            "state": "North Carolina",
            "country": "US",
            "elevation": 65,
            "lat": 34.4752998352,
            "lon": -77.5813980103,
            "tz": "America/New_York"
        },
        "airport-51": {
            "_id": "airport-51",
            "icao": "01NE",
            "iata": "",
            "name": "Detour Airport",
            "city": "Wellfleet",
            "state": "Nebraska",
            "country": "US",
            "elevation": 3000,
            "lat": 40.8436012268,
            "lon": -100.6529998779,
            "tz": "America/Chicago"
        },
        "airport-52": {
            "_id": "airport-52",
            "icao": "01NH",
            "iata": "",
            "name": "Moore Airfield",
            "city": "Enfield",
            "state": "New Hampshire",
            "country": "US",
            "elevation": 835,
            "lat": 43.6445007324,
            "lon": -72.0869979858,
            "tz": "America/New_York"
        },
        "airport-53": {
            "_id": "airport-53",
            "icao": "01NM",
            "iata": "",
            "name": "Champion Ranch Airport",
            "city": "Artesia",
            "state": "New Mexico",
            "country": "US",
            "elevation": 3630,
            "lat": 33.008611,
            "lon": -104.540278,
            "tz": "America/Denver"
        },
        "airport-54": {
            "_id": "airport-54",
            "icao": "01NV",
            "iata": "",
            "name": "Lantana Ranch Airport",
            "city": "Yerington",
            "state": "Nevada",
            "country": "US",
            "elevation": 4600,
            "lat": 38.7639007568,
            "lon": -119.0270004272,
            "tz": "America/Los_Angeles"
        },
        "airport-55": {
            "_id": "airport-55",
            "icao": "01OK",
            "iata": "",
            "name": "Lawrence Airport",
            "city": "Eakly",
            "state": "Oklahoma",
            "country": "US",
            "elevation": 1525,
            "lat": 35.2944984436,
            "lon": -98.6364974976,
            "tz": "America/Chicago"
        },
        "airport-56": {
            "_id": "airport-56",
            "icao": "01OR",
            "iata": "",
            "name": "Red & White Flying Service Airport",
            "city": "Silver Lake",
            "state": "Oregon",
            "country": "US",
            "elevation": 4346,
            "lat": 43.1193008423,
            "lon": -121.0449981689,
            "tz": "America/Los_Angeles"
        },
        "airport-57": {
            "_id": "airport-57",
            "icao": "01PN",
            "iata": "",
            "name": "Bierly(Personal Use) Airport",
            "city": "Bellefonte",
            "state": "Pennsylvania",
            "country": "US",
            "elevation": 960,
            "lat": 40.9305992126,
            "lon": -77.738899231,
            "tz": "America/New_York"
        },
        "airport-58": {
            "_id": "airport-58",
            "icao": "01PS",
            "iata": "",
            "name": "Nort's Resort Airport",
            "city": "Meshoppen",
            "state": "Pennsylvania",
            "country": "US",
            "elevation": 1040,
            "lat": 41.5959014893,
            "lon": -76.0296020508,
            "tz": "America/New_York"
        },
        "airport-59": {
            "_id": "airport-59",
            "icao": "01SC",
            "iata": "",
            "name": "York Airport",
            "city": "York",
            "state": "South Carolina",
            "country": "US",
            "elevation": 779,
            "lat": 35.0321006775,
            "lon": -81.2527999878,
            "tz": "America/New_York"
        },
        "airport-60": {
            "_id": "airport-60",
            "icao": "01TE",
            "iata": "",
            "name": "Smith Field",
            "city": "Forney",
            "state": "Texas",
            "country": "US",
            "elevation": 505,
            "lat": 32.7375984192,
            "lon": -96.4280014038,
            "tz": "America/Chicago"
        },
        "airport-61": {
            "_id": "airport-61",
            "icao": "01TN",
            "iata": "",
            "name": "Colonial Air Park",
            "city": "Collierville",
            "state": "Tennessee",
            "country": "US",
            "elevation": 370,
            "lat": 34.9958992004,
            "lon": -89.7305984497,
            "tz": "America/Chicago"
        },
        "airport-62": {
            "_id": "airport-62",
            "icao": "01TX",
            "iata": "",
            "name": "Mims Farm Ultralightport",
            "city": "Waxahachie",
            "state": "Texas",
            "country": "US",
            "elevation": 610,
            "lat": 32.3875999451,
            "lon": -96.8775024414,
            "tz": "America/Chicago"
        },
        "airport-63": {
            "_id": "airport-63",
            "icao": "01UT",
            "iata": "",
            "name": "La Sal Junction Airport",
            "city": "La Sal",
            "state": "Utah",
            "country": "US",
            "elevation": 6000,
            "lat": 38.3083000183,
            "lon": -109.3960037231,
            "tz": "America/Denver"
        },
        "airport-64": {
            "_id": "airport-64",
            "icao": "01VA",
            "iata": "",
            "name": "Pickles Airport",
            "city": "Berryville",
            "state": "Virginia",
            "country": "US",
            "elevation": 500,
            "lat": 39.125,
            "lon": -77.9250030518,
            "tz": "America/New_York"
        },
        "airport-65": {
            "_id": "airport-65",
            "icao": "01WI",
            "iata": "",
            "name": "Prehn Cranberry Company Airport",
            "city": "Tomah",
            "state": "Wisconsin",
            "country": "US",
            "elevation": 930,
            "lat": 44.0099983215,
            "lon": -90.3891983032,
            "tz": "America/Chicago"
        },
        "airport-66": {
            "_id": "airport-66",
            "icao": "01WY",
            "iata": "",
            "name": "Keyhole Airport",
            "city": "Moorcroft",
            "state": "Wyoming",
            "country": "US",
            "elevation": 4250,
            "lat": 44.3471984863,
            "lon": -104.8109970093,
            "tz": "America/Denver"
        },
        "airport-67": {
            "_id": "airport-67",
            "icao": "02AK",
            "iata": "",
            "name": "Rustic Wilderness Airport",
            "city": "Willow",
            "state": "Alaska",
            "country": "US",
            "elevation": 190,
            "lat": 61.8768997192,
            "lon": -150.0980072021,
            "tz": "America/Anchorage"
        },
        "airport-68": {
            "_id": "airport-68",
            "icao": "02AL",
            "iata": "",
            "name": "Bass Field",
            "city": "Foley",
            "state": "Alabama",
            "country": "US",
            "elevation": 61,
            "lat": 30.3715000153,
            "lon": -87.7643966675,
            "tz": "America/Chicago"
        },
        "airport-69": {
            "_id": "airport-69",
            "icao": "02AR",
            "iata": "",
            "name": "Three Rivers Airport",
            "city": "Little Rock",
            "state": "Arkansas",
            "country": "US",
            "elevation": 264,
            "lat": 34.8224449158,
            "lon": -92.4444198608,
            "tz": "America/Chicago"
        },
        "airport-70": {
            "_id": "airport-70",
            "icao": "02AZ",
            "iata": "",
            "name": "Winchester Farm Airstrip",
            "city": "Willcox",
            "state": "Arizona",
            "country": "US",
            "elevation": 4200,
            "lat": 32.3763999939,
            "lon": -109.93699646,
            "tz": "America/Phoenix"
        },
        "airport-71": {
            "_id": "airport-71",
            "icao": "02CD",
            "iata": "",
            "name": "Shannon Field",
            "city": "Clarksdale",
            "state": "Mississippi",
            "country": "US",
            "elevation": 165,
            "lat": 34.1296005249,
            "lon": -90.5240020752,
            "tz": "America/Chicago"
        },
        "airport-72": {
            "_id": "airport-72",
            "icao": "02CL",
            "iata": "",
            "name": "Conover Air Lodge Airport",
            "city": "Frazier Park",
            "state": "California",
            "country": "US",
            "elevation": 5160,
            "lat": 34.761100769,
            "lon": -119.0589981079,
            "tz": "America/Los_Angeles"
        },
        "airport-73": {
            "_id": "airport-73",
            "icao": "02CO",
            "iata": "",
            "name": "Mc Cullough Airport",
            "city": "Monte Vista",
            "state": "Colorado",
            "country": "US",
            "elevation": 7615,
            "lat": 37.6432991028,
            "lon": -106.04699707,
            "tz": "America/Denver"
        },
        "airport-74": {
            "_id": "airport-74",
            "icao": "02FA",
            "iata": "",
            "name": "Osborn Airfield",
            "city": "Groveland",
            "state": "Florida",
            "country": "US",
            "elevation": 121,
            "lat": 28.5266990662,
            "lon": -81.8748016357,
            "tz": "America/New_York"
        },
        "airport-75": {
            "_id": "airport-75",
            "icao": "02FL",
            "iata": "",
            "name": "Cuchens Airport",
            "city": "Defuniak Springs",
            "state": "Florida",
            "country": "US",
            "elevation": 215,
            "lat": 30.642778,
            "lon": -86.123889,
            "tz": "America/Chicago"
        },
        "airport-76": {
            "_id": "airport-76",
            "icao": "02GA",
            "iata": "",
            "name": "Doug Bolton Field",
            "city": "Commerce",
            "state": "Georgia",
            "country": "US",
            "elevation": 884,
            "lat": 34.2025985718,
            "lon": -83.4290008545,
            "tz": "America/New_York"
        },
        "airport-77": {
            "_id": "airport-77",
            "icao": "02GE",
            "iata": "",
            "name": "Etowah Fields Airport",
            "city": "Euharlee",
            "state": "Georgia",
            "country": "US",
            "elevation": 710,
            "lat": 34.1753005981,
            "lon": -84.9244003296,
            "tz": "America/New_York"
        },
        "airport-78": {
            "_id": "airport-78",
            "icao": "02ID",
            "iata": "",
            "name": "Morgan Ranch Airport",
            "city": "Cascade",
            "state": "Idaho",
            "country": "US",
            "elevation": 5634,
            "lat": 44.5555000305,
            "lon": -115.3050003052,
            "tz": "America/Boise"
        },
        "airport-79": {
            "_id": "airport-79",
            "icao": "02II",
            "iata": "",
            "name": "King Ultralightport",
            "city": "Westfield",
            "state": "Indiana",
            "country": "US",
            "elevation": 925,
            "lat": 40.0623016357,
            "lon": -86.2105026245,
            "tz": "America/Indiana/Indianapolis"
        },
        "airport-80": {
            "_id": "airport-80",
            "icao": "02IN",
            "iata": "",
            "name": "Diamond P. Field",
            "city": "Muncie",
            "state": "Indiana",
            "country": "US",
            "elevation": 904,
            "lat": 40.2089004517,
            "lon": -85.540802002,
            "tz": "America/Indiana/Indianapolis"
        },
        "airport-81": {
            "_id": "airport-81",
            "icao": "02KS",
            "iata": "",
            "name": "Jmj Landing Airport",
            "city": "St Marys",
            "state": "Kansas",
            "country": "US",
            "elevation": 1170,
            "lat": 39.2221984863,
            "lon": -96.0552978516,
            "tz": "America/Chicago"
        },
        "airport-82": {
            "_id": "airport-82",
            "icao": "02ME",
            "iata": "",
            "name": "Nadeaus' Airfield",
            "city": "Acton",
            "state": "Maine",
            "country": "US",
            "elevation": 700,
            "lat": 43.5373001099,
            "lon": -70.929397583,
            "tz": "America/New_York"
        },
        "airport-83": {
            "_id": "airport-83",
            "icao": "02MI",
            "iata": "",
            "name": "Fairplains Airpark",
            "city": "Greenville",
            "state": "Michigan",
            "country": "US",
            "elevation": 850,
            "lat": 43.1571006775,
            "lon": -85.1484985352,
            "tz": "America/Detroit"
        },
        "airport-84": {
            "_id": "airport-84",
            "icao": "02MN",
            "iata": "",
            "name": "Greenbush Municipal Airport",
            "city": "Greenbush",
            "state": "Minnesota",
            "country": "US",
            "elevation": 1070,
            "lat": 48.6833000183,
            "lon": -96.1920013428,
            "tz": "America/Chicago"
        },
        "airport-85": {
            "_id": "airport-85",
            "icao": "02MO",
            "iata": "",
            "name": "Troy Airpark",
            "city": "Troy",
            "state": "Missouri",
            "country": "US",
            "elevation": 650,
            "lat": 39.0499992371,
            "lon": -91.0335006714,
            "tz": "America/Chicago"
        },
        "airport-86": {
            "_id": "airport-86",
            "icao": "02MS",
            "iata": "",
            "name": "Watts Field",
            "city": "Rochdale",
            "state": "Mississippi",
            "country": "US",
            "elevation": 153,
            "lat": 34.1001014709,
            "lon": -90.8468017578,
            "tz": "America/Chicago"
        },
        "airport-87": {
            "_id": "airport-87",
            "icao": "02MT",
            "iata": "",
            "name": "Barrett Field",
            "city": "Cascade",
            "state": "Montana",
            "country": "US",
            "elevation": 3350,
            "lat": 47.2374000549,
            "lon": -111.7419967651,
            "tz": "America/Denver"
        },
        "airport-88": {
            "_id": "airport-88",
            "icao": "02MU",
            "iata": "",
            "name": "Timber Line Airpark",
            "city": "Cassville",
            "state": "Missouri",
            "country": "US",
            "elevation": 1550,
            "lat": 36.6542015076,
            "lon": -93.7974014282,
            "tz": "America/Chicago"
        },
        "airport-89": {
            "_id": "airport-89",
            "icao": "02NE",
            "iata": "",
            "name": "Benes Service Airport",
            "city": "Valparaiso",
            "state": "Nebraska",
            "country": "US",
            "elevation": 1550,
            "lat": 41.0745010376,
            "lon": -96.9045028687,
            "tz": "America/Chicago"
        },
        "airport-90": {
            "_id": "airport-90",
            "icao": "02NV",
            "iata": "",
            "name": "Paiute Meadows Airport",
            "city": "Winnemucca",
            "state": "Nevada",
            "country": "US",
            "elevation": 4443,
            "lat": 41.3032989502,
            "lon": -118.5979995728,
            "tz": "America/Los_Angeles"
        },
        "airport-91": {
            "_id": "airport-91",
            "icao": "02OH",
            "iata": "",
            "name": "Zimmerman Airport",
            "city": "Fremont",
            "state": "Ohio",
            "country": "US",
            "elevation": 614,
            "lat": 41.3763999939,
            "lon": -83.0832977295,
            "tz": "America/New_York"
        },
        "airport-92": {
            "_id": "airport-92",
            "icao": "02OI",
            "iata": "",
            "name": "Murtha Airport",
            "city": "Conneaut",
            "state": "Ohio",
            "country": "US",
            "elevation": 950,
            "lat": 41.8019981384,
            "lon": -80.5653991699,
            "tz": "America/New_York"
        },
        "airport-93": {
            "_id": "airport-93",
            "icao": "02OR",
            "iata": "",
            "name": "Rowena Dell Airport",
            "city": "The Dalles",
            "state": "Oregon",
            "country": "US",
            "elevation": 705,
            "lat": 45.6814994812,
            "lon": -121.3160018921,
            "tz": "America/Los_Angeles"
        },
        "airport-94": {
            "_id": "airport-94",
            "icao": "02PR",
            "iata": "",
            "name": "Cuylers Airport",
            "city": "Vega Baja",
            "state": "Vega Baja",
            "country": "PR",
            "elevation": 15,
            "lat": 18.4533004761,
            "lon": -66.366897583,
            "tz": "America/Puerto_Rico"
        },
        "airport-95": {
            "_id": "airport-95",
            "icao": "02PS",
            "iata": "",
            "name": "Hughes Ultralightport",
            "city": "Tioga",
            "state": "Pennsylvania",
            "country": "US",
            "elevation": 1700,
            "lat": 41.9006004333,
            "lon": -77.2303009033,
            "tz": "America/New_York"
        },
        "airport-96": {
            "_id": "airport-96",
            "icao": "02SC",
            "iata": "",
            "name": "Harpers Airport",
            "city": "Estill",
            "state": "South Carolina",
            "country": "US",
            "elevation": 111,
            "lat": 32.7584991455,
            "lon": -81.2248001099,
            "tz": "America/New_York"
        },
        "airport-97": {
            "_id": "airport-97",
            "icao": "02TN",
            "iata": "",
            "name": "Ellis Field",
            "city": "Murfreesboro",
            "state": "Tennessee",
            "country": "US",
            "elevation": 840,
            "lat": 35.7806015015,
            "lon": -86.584197998,
            "tz": "America/Chicago"
        },
        "airport-98": {
            "_id": "airport-98",
            "icao": "02TS",
            "iata": "",
            "name": "El Tesoro Ranch Airport",
            "city": "Charlotte",
            "state": "Texas",
            "country": "US",
            "elevation": 334,
            "lat": 28.66264166,
            "lon": -98.72309444,
            "tz": "America/Chicago"
        },
        "airport-99": {
            "_id": "airport-99",
            "icao": "02TX",
            "iata": "",
            "name": "The Palms At Kitty Hawk Airport",
            "city": "New Home",
            "state": "Texas",
            "country": "US",
            "elevation": 3235,
            "lat": 33.3704032898,
            "lon": -101.92288208,
            "tz": "America/Chicago"
        },
        "airport-100": {
            "_id": "airport-100",
            "icao": "02UT",
            "iata": "",
            "name": "Lucin Airport",
            "city": "Lucin",
            "state": "Utah",
            "country": "US",
            "elevation": 4412,
            "lat": 41.3662986755,
            "lon": -113.8430023193,
            "tz": "America/Denver"
        }
    },
    "comments": {}
}